{"type":"FeatureCollection","features":[{"type":"Feature","properties":{"name":"Sand Island"},"geometry":{"type":"Point","coordinates":[-157.8761100769043,21.302329488780988]}},{"type":"Feature","properties":{"name":"Waikiki"},"geometry":{"type":"Point","coordinates":[-157.83735752105713,21.28109686770573]}},{"type":"Feature","properties":{"name":"Ala Moana"},"geometry":{"type":"Point","coordinates":[-157.8468418121338,21.28845465796195]}},{"type":"Feature","properties":{"name":"Hanauma Bay"},"geometry":{"type":"Point","coordinates":[-157.6964020729065,21.271879116582163]}},{"type":"Feature","properties":{"name":"Kailua"},"geometry":{"type":"Point","coordinates":[-157.72530555725095,21.396699501682942]}},{"type":"Feature","properties":{"name":"Ko Olina"},"geometry":{"type":"Point","coordinates":[-158.12192916870114,21.32811639917769]}}]}